{
    "locations": [
        {"title": "金融街购物中心", "location": {"lat": 39.915725, "lng": 116.361656}},
        {"title": "政协礼堂", "location": {"lat": 39.919562, "lng": 116.364399}},
        {"title": "KFC", "location": {"lat": 39.916971, "lng": 116.362238}},
        {"title": "海底捞", "location": {"lat": 39.910655, "lng": 116.372771}},
        {"title": "西单文化广场", "location": {"lat": 39.908842, "lng": 116.374797 }},
        {"title": "宏庙小学", "location": {"lat": 39.915515, "lng": 116.370649}}
        ]
}